{
  "type": "FeatureCollection",
  "features": [
    {
      "type": "Feature",
      "geometry": { "type": "Point", "coordinates": [118.450505, 9.642261] },
      "properties": {
        "name": "Anepahan Peaks",
        "elev": 1121,
        "prom": 748,
        "coord": "9°38′32″N 118°27′2″E",
        "prov": ["Palawan"],
        "region": ["Mimaropa"],
        "isl_grp": "Luzon",
        "alt_names": [],
        "marker-color": "#259346",
        "marker-size": "medium",
        "marker-symbol": "mountain"
      }
    },
    {
      "type": "Feature",
      "geometry": { "type": "Point", "coordinates": [117.053135, 7.923902] },
      "properties": {
        "name": "Balabac Peak",
        "elev": 569,
        "prom": 569,
        "coord": "7°55′26″N 117°3′11″E",
        "prov": ["Palawan"],
        "region": ["Mimaropa"],
        "isl_grp": "Luzon",
        "alt_names": [],
        "marker-color": "#259346",
        "marker-size": "medium",
        "marker-symbol": "mountain"
      }
    },
    {
      "type": "Feature",
      "geometry": { "type": "Point", "coordinates": [119.612906, 11.170837] },
      "properties": {
        "name": "Bancuan Mountain",
        "elev": 322,
        "prom": 322,
        "coord": "11°10′15″N 119°36′46″E",
        "prov": ["Palawan"],
        "region": ["Mimaropa"],
        "isl_grp": "Luzon",
        "alt_names": [],
        "marker-color": "#259346",
        "marker-size": "small",
        "marker-symbol": "mountain"
      }
    },
    {
      "type": "Feature",
      "geometry": { "type": "Point", "coordinates": [119.364971, 10.6832] },
      "properties": {
        "name": "Bay Peak",
        "elev": 604,
        "prom": 465,
        "coord": "10°40′60″N 119°21′54″E",
        "prov": ["Palawan"],
        "region": ["Mimaropa"],
        "isl_grp": "Luzon",
        "alt_names": [],
        "marker-color": "#259346",
        "marker-size": "medium",
        "marker-symbol": "mountain"
      }
    },
    {
      "type": "Feature",
      "geometry": { "type": "Point", "coordinates": [118.82338, 10.148429] },
      "properties": {
        "name": "Bentoan Peak",
        "elev": 525,
        "prom": 428,
        "coord": "10°8′54″N 118°49′24″E",
        "prov": ["Palawan"],
        "region": ["Mimaropa"],
        "isl_grp": "Luzon",
        "alt_names": [],
        "marker-color": "#259346",
        "marker-size": "medium",
        "marker-symbol": "mountain"
      }
    },
    {
      "type": "Feature",
      "geometry": { "type": "Point", "coordinates": [118.57053, 9.63482] },
      "properties": {
        "name": "Central Peak",
        "elev": 975,
        "prom": 522,
        "coord": "9°38′5″N 118°34′14″E",
        "prov": ["Palawan"],
        "region": ["Mimaropa"],
        "isl_grp": "Luzon",
        "alt_names": [],
        "marker-color": "#259346",
        "marker-size": "medium",
        "marker-symbol": "mountain"
      }
    },
    {
      "type": "Feature",
      "geometry": { "type": "Point", "coordinates": [118.994594, 10.123872] },
      "properties": {
        "name": "Cleopatra Needle",
        "elev": 1593,
        "prom": 1568,
        "coord": "10°7′26″N 118°59′41″E",
        "is_volc": false,
        "prov": ["Palawan"],
        "region": ["Mimaropa"],
        "isl_grp": "Luzon",
        "alt_names": [],
        "marker-color": "#259346",
        "marker-size": "large",
        "marker-symbol": "mountain"
      }
    },
    {
      "type": "Feature",
      "geometry": { "type": "Point", "coordinates": [119.150561, 10.070798] },
      "properties": {
        "name": "Dome Peak",
        "elev": 899,
        "prom": 415,
        "coord": "10°4′15″N 119°9′2″E",
        "prov": ["Palawan"],
        "region": ["Mimaropa"],
        "isl_grp": "Luzon",
        "alt_names": [],
        "marker-color": "#259346",
        "marker-size": "medium",
        "marker-symbol": "mountain"
      }
    },
    {
      "type": "Feature",
      "geometry": { "type": "Point", "coordinates": [117.425728, 8.724609] },
      "properties": {
        "name": "Double Peak",
        "elev": 544,
        "prom": 441,
        "coord": "8°43′29″N 117°25′33″E",
        "prov": ["Palawan"],
        "region": ["Mimaropa"],
        "isl_grp": "Luzon",
        "alt_names": [],
        "marker-color": "#259346",
        "marker-size": "medium",
        "marker-symbol": "mountain"
      }
    },
    {
      "type": "Feature",
      "geometry": { "type": "Point", "coordinates": [119.623889, 10.500543] },
      "properties": {
        "name": "Drake Peak",
        "elev": 403,
        "prom": 360,
        "coord": "10°30′2″N 119°37′26″E",
        "prov": ["Palawan"],
        "region": ["Mimaropa"],
        "isl_grp": "Luzon",
        "alt_names": [],
        "marker-color": "#259346",
        "marker-size": "small",
        "marker-symbol": "mountain"
      }
    },
    {
      "type": "Feature",
      "geometry": { "type": "Point", "coordinates": [119.528809, 11.294392] },
      "properties": {
        "name": "East Peak",
        "elev": 519,
        "prom": 435,
        "coord": "11°17′40″N 119°31′44″E",
        "prov": ["Palawan"],
        "region": ["Mimaropa"],
        "isl_grp": "Luzon",
        "alt_names": [],
        "marker-color": "#259346",
        "marker-size": "medium",
        "marker-symbol": "mountain"
      }
    },
    {
      "type": "Feature",
      "geometry": { "type": "Point", "coordinates": [118.210565, 9.316111] },
      "properties": {
        "name": "End Peak",
        "elev": 1375,
        "prom": 1284,
        "coord": "9°18′58″N 118°12′38″E",
        "prov": ["Palawan"],
        "region": ["Mimaropa"],
        "isl_grp": "Luzon",
        "alt_names": [],
        "marker-color": "#259346",
        "marker-size": "medium",
        "marker-symbol": "mountain"
      }
    },
    {
      "type": "Feature",
      "geometry": { "type": "Point", "coordinates": [117.370673, 8.603629] },
      "properties": {
        "name": "Escarpado Peak",
        "elev": 1050,
        "prom": 1013,
        "coord": "8°36′13″N 117°22′14″E",
        "prov": ["Palawan"],
        "region": ["Mimaropa"],
        "isl_grp": "Luzon",
        "alt_names": [],
        "marker-color": "#259346",
        "marker-size": "medium",
        "marker-symbol": "mountain"
      }
    },
    {
      "type": "Feature",
      "geometry": { "type": "Point", "coordinates": [119.154799, 10.117378] },
      "properties": {
        "name": "Escarpado Peak",
        "elev": 1236,
        "prom": 790,
        "coord": "10°7′3″N 119°9′17″E",
        "prov": ["Palawan"],
        "region": ["Mimaropa"],
        "isl_grp": "Luzon",
        "alt_names": [],
        "marker-color": "#259346",
        "marker-size": "medium",
        "marker-symbol": "mountain"
      }
    },
    {
      "type": "Feature",
      "geometry": { "type": "Point", "coordinates": [119.36333, 11.213587] },
      "properties": {
        "name": "Loggerhead Peaks",
        "elev": 435,
        "prom": 435,
        "coord": "11°12′49″N 119°21′48″E",
        "prov": ["Palawan"],
        "region": ["Mimaropa"],
        "isl_grp": "Luzon",
        "alt_names": [],
        "marker-color": "#259346",
        "marker-size": "small",
        "marker-symbol": "mountain"
      }
    },
    {
      "type": "Feature",
      "geometry": { "type": "Point", "coordinates": [117.997448, 9.178086] },
      "properties": {
        "name": "Malanut Peak",
        "elev": 495,
        "prom": 390,
        "coord": "9°10′41″N 117°59′51″E",
        "prov": ["Palawan"],
        "region": ["Mimaropa"],
        "isl_grp": "Luzon",
        "alt_names": [],
        "marker-color": "#259346",
        "marker-size": "small",
        "marker-symbol": "mountain"
      }
    },
    {
      "type": "Feature",
      "geometry": { "type": "Point", "coordinates": [118.466466, 9.510609] },
      "properties": {
        "name": "Mount Aborlan",
        "elev": 745,
        "prom": 408,
        "coord": "9°30′38″N 118°27′59″E",
        "prov": ["Palawan"],
        "region": ["Mimaropa"],
        "isl_grp": "Luzon",
        "alt_names": [],
        "marker-color": "#259346",
        "marker-size": "medium",
        "marker-symbol": "mountain"
      }
    },
    {
      "type": "Feature",
      "geometry": { "type": "Point", "coordinates": [118.675678, 9.951835] },
      "properties": {
        "name": "Mount Airy",
        "elev": 616,
        "prom": 394,
        "coord": "9°57′7″N 118°40′32″E",
        "prov": ["Palawan"],
        "region": ["Mimaropa"],
        "isl_grp": "Luzon",
        "alt_names": [],
        "marker-color": "#259346",
        "marker-size": "medium",
        "marker-symbol": "mountain"
      }
    },
    {
      "type": "Feature",
      "geometry": { "type": "Point", "coordinates": [118.636064, 9.811304] },
      "properties": {
        "name": "Mount Beaufort",
        "elev": 1094,
        "prom": 384,
        "coord": "9°48′41″N 118°38′10″E",
        "prov": ["Palawan"],
        "region": ["Mimaropa"],
        "isl_grp": "Luzon",
        "alt_names": [],
        "marker-color": "#259346",
        "marker-size": "medium",
        "marker-symbol": "mountain"
      }
    },
    {
      "type": "Feature",
      "geometry": { "type": "Point", "coordinates": [118.863083, 10.184755] },
      "properties": {
        "name": "Mount Bloomfield",
        "elev": 795,
        "prom": 722,
        "coord": "10°11′5″N 118°51′47″E",
        "prov": ["Palawan"],
        "region": ["Mimaropa"],
        "isl_grp": "Luzon",
        "alt_names": [],
        "marker-color": "#259346",
        "marker-size": "medium",
        "marker-symbol": "mountain"
      }
    },
    {
      "type": "Feature",
      "geometry": { "type": "Point", "coordinates": [117.862748, 8.989634] },
      "properties": {
        "name": "Mount Calibugon",
        "elev": 1442,
        "prom": 317,
        "coord": "8°59′23″N 117°51′46″E",
        "prov": ["Palawan"],
        "region": ["Mimaropa"],
        "isl_grp": "Luzon",
        "alt_names": [],
        "marker-color": "#259346",
        "marker-size": "medium",
        "marker-symbol": "mountain"
      }
    },
    {
      "type": "Feature",
      "geometry": { "type": "Point", "coordinates": [119.286208, 10.802215] },
      "properties": {
        "name": "Mount Capoas",
        "elev": 998,
        "prom": 920,
        "coord": "10°48′8″N 119°17′10″E",
        "prov": ["Palawan"],
        "region": ["Mimaropa"],
        "isl_grp": "Luzon",
        "alt_names": [],
        "marker-color": "#259346",
        "marker-size": "medium",
        "marker-symbol": "mountain"
      }
    },
    {
      "type": "Feature",
      "geometry": { "type": "Point", "coordinates": [120.00001, 11.866374] },
      "properties": {
        "name": "Mount Chinankan",
        "elev": 430,
        "prom": 405,
        "coord": "11°51′59″N 120°0′0″E",
        "prov": ["Palawan"],
        "region": ["Mimaropa"],
        "isl_grp": "Luzon",
        "alt_names": [],
        "marker-color": "#259346",
        "marker-size": "small",
        "marker-symbol": "mountain"
      }
    },
    {
      "type": "Feature",
      "geometry": { "type": "Point", "coordinates": [120.078712, 12.047493] },
      "properties": {
        "name": "Mount Culion",
        "elev": 364,
        "prom": 328,
        "coord": "12°2′51″N 120°4′43″E",
        "prov": ["Palawan"],
        "region": ["Mimaropa"],
        "isl_grp": "Luzon",
        "alt_names": [],
        "marker-color": "#259346",
        "marker-size": "small",
        "marker-symbol": "mountain"
      }
    },
    {
      "type": "Feature",
      "geometry": { "type": "Point", "coordinates": [117.816651, 8.960016] },
      "properties": {
        "name": "Mount Gantung",
        "elev": 1780,
        "prom": 797,
        "coord": "8°57′36″N 117°48′60″E",
        "prov": ["Palawan"],
        "region": ["Mimaropa"],
        "isl_grp": "Luzon",
        "alt_names": [],
        "marker-color": "#259346",
        "marker-size": "large",
        "marker-symbol": "mountain"
      }
    },
    {
      "type": "Feature",
      "geometry": { "type": "Point", "coordinates": [119.283556, 11.18218] },
      "properties": {
        "name": "Mount Horn",
        "elev": 393,
        "prom": 393,
        "coord": "11°10′56″N 119°17′1″E",
        "prov": ["Palawan"],
        "region": ["Mimaropa"],
        "isl_grp": "Luzon",
        "alt_names": [],
        "marker-color": "#259346",
        "marker-size": "small",
        "marker-symbol": "mountain"
      }
    },
    {
      "type": "Feature",
      "geometry": { "type": "Point", "coordinates": [119.545502, 10.434337] },
      "properties": {
        "name": "Mount Ilian",
        "elev": 645,
        "prom": 528,
        "coord": "10°26′4″N 119°32′44″E",
        "prov": ["Palawan"],
        "region": ["Mimaropa"],
        "isl_grp": "Luzon",
        "alt_names": [],
        "marker-color": "#259346",
        "marker-size": "medium",
        "marker-symbol": "mountain"
      }
    },
    {
      "type": "Feature",
      "geometry": { "type": "Point", "coordinates": [117.785904, 8.913306] },
      "properties": {
        "name": "Mount Landargun",
        "elev": 1655,
        "prom": 487,
        "coord": "8°54′48″N 117°47′9″E",
        "prov": ["Palawan"],
        "region": ["Mimaropa"],
        "isl_grp": "Luzon",
        "alt_names": [],
        "marker-color": "#259346",
        "marker-size": "large",
        "marker-symbol": "mountain"
      }
    },
    {
      "type": "Feature",
      "geometry": { "type": "Point", "coordinates": [119.369122, 11.025992] },
      "properties": {
        "name": "Mount Maateg",
        "elev": 349,
        "prom": 336,
        "coord": "11°1′34″N 119°22′9″E",
        "prov": ["Palawan"],
        "region": ["Mimaropa"],
        "isl_grp": "Luzon",
        "alt_names": [],
        "marker-color": "#259346",
        "marker-size": "small",
        "marker-symbol": "mountain"
      }
    },
    {
      "type": "Feature",
      "geometry": { "type": "Point", "coordinates": [117.675011, 8.818668] },
      "properties": {
        "name": "Mount Mantalingajan",
        "elev": 2086,
        "prom": 2086,
        "coord": "8°49′7″N 117°40′30″E",
        "is_volc": false,
        "prov": ["Palawan"],
        "region": ["Mimaropa"],
        "isl_grp": "Luzon",
        "alt_names": [],
        "marker-color": "#259346",
        "marker-size": "large",
        "marker-symbol": "mountain"
      }
    },
    {
      "type": "Feature",
      "geometry": { "type": "Point", "coordinates": [120.284182, 12.087185] },
      "properties": {
        "name": "Mount Minangas",
        "elev": 547,
        "prom": 307,
        "coord": "12°5′14″N 120°17′3″E",
        "prov": ["Palawan"],
        "region": ["Mimaropa"],
        "isl_grp": "Luzon",
        "alt_names": [],
        "marker-color": "#259346",
        "marker-size": "medium",
        "marker-symbol": "mountain"
      }
    },
    {
      "type": "Feature",
      "geometry": { "type": "Point", "coordinates": [120.02963, 11.729139] },
      "properties": {
        "name": "Mount Oltaloro",
        "elev": 468,
        "prom": 468,
        "coord": "11°43′45″N 120°1′47″E",
        "prov": ["Palawan"],
        "region": ["Mimaropa"],
        "isl_grp": "Luzon",
        "alt_names": [],
        "marker-color": "#259346",
        "marker-size": "small",
        "marker-symbol": "mountain"
      }
    },
    {
      "type": "Feature",
      "geometry": { "type": "Point", "coordinates": [118.71577, 9.995796] },
      "properties": {
        "name": "Mount Peel",
        "elev": 1114,
        "prom": 987,
        "coord": "9°59′45″N 118°42′57″E",
        "prov": ["Palawan"],
        "region": ["Mimaropa"],
        "isl_grp": "Luzon",
        "alt_names": [],
        "marker-color": "#259346",
        "marker-size": "medium",
        "marker-symbol": "mountain"
      }
    },
    {
      "type": "Feature",
      "geometry": { "type": "Point", "coordinates": [118.909357, 10.16212] },
      "properties": {
        "name": "Mount Saint Paul",
        "elev": 985,
        "prom": 740,
        "coord": "10°9′44″N 118°54′34″E",
        "prov": ["Palawan"],
        "region": ["Mimaropa"],
        "isl_grp": "Luzon",
        "alt_names": [],
        "marker-color": "#259346",
        "marker-size": "medium",
        "marker-symbol": "mountain"
      }
    },
    {
      "type": "Feature",
      "geometry": { "type": "Point", "coordinates": [118.819786, 10.179147] },
      "properties": {
        "name": "Mount Sangbauen",
        "elev": 547,
        "prom": 468,
        "coord": "10°10′45″N 118°49′11″E",
        "prov": ["Palawan"],
        "region": ["Mimaropa"],
        "isl_grp": "Luzon",
        "alt_names": [],
        "marker-color": "#259346",
        "marker-size": "medium",
        "marker-symbol": "mountain"
      }
    },
    {
      "type": "Feature",
      "geometry": { "type": "Point", "coordinates": [120.231708, 12.029545] },
      "properties": {
        "name": "Mount Tundalara",
        "elev": 620,
        "prom": 620,
        "coord": "12°1′46″N 120°13′54″E",
        "prov": ["Palawan"],
        "region": ["Mimaropa"],
        "isl_grp": "Luzon",
        "alt_names": [],
        "marker-color": "#259346",
        "marker-size": "medium",
        "marker-symbol": "mountain"
      }
    },
    {
      "type": "Feature",
      "geometry": { "type": "Point", "coordinates": [119.450576, 11.169493] },
      "properties": {
        "name": "Mount Ynantagung",
        "elev": 483,
        "prom": 366,
        "coord": "11°10′10″N 119°27′2″E",
        "prov": ["Palawan"],
        "region": ["Mimaropa"],
        "isl_grp": "Luzon",
        "alt_names": [],
        "marker-color": "#259346",
        "marker-size": "small",
        "marker-symbol": "mountain"
      }
    },
    {
      "type": "Feature",
      "geometry": { "type": "Point", "coordinates": [119.451373, 10.920595] },
      "properties": {
        "name": "Omid Peak",
        "elev": 470,
        "prom": 318,
        "coord": "10°55′14″N 119°27′5″E",
        "prov": ["Palawan"],
        "region": ["Mimaropa"],
        "isl_grp": "Luzon",
        "alt_names": [],
        "marker-color": "#259346",
        "marker-size": "small",
        "marker-symbol": "mountain"
      }
    },
    {
      "type": "Feature",
      "geometry": { "type": "Point", "coordinates": [119.401077, 10.900209] },
      "properties": {
        "name": "Pancol Peak",
        "elev": 459,
        "prom": 340,
        "coord": "10°54′1″N 119°24′4″E",
        "prov": ["Palawan"],
        "region": ["Mimaropa"],
        "isl_grp": "Luzon",
        "alt_names": [],
        "marker-color": "#259346",
        "marker-size": "small",
        "marker-symbol": "mountain"
      }
    },
    {
      "type": "Feature",
      "geometry": { "type": "Point", "coordinates": [120.072588, 11.972499] },
      "properties": {
        "name": "Sangat Island high point",
        "elev": 455,
        "prom": 455,
        "coord": "11°58′21″N 120°4′21″E",
        "prov": ["Palawan"],
        "region": ["Mimaropa"],
        "isl_grp": "Luzon",
        "alt_names": [],
        "marker-color": "#259346",
        "marker-size": "small",
        "marker-symbol": "mountain"
      }
    },
    {
      "type": "Feature",
      "geometry": { "type": "Point", "coordinates": [119.461915, 11.056209] },
      "properties": {
        "name": "Shark Fin Peak",
        "elev": 552,
        "prom": 526,
        "coord": "11°3′22″N 119°27′43″E",
        "prov": ["Palawan"],
        "region": ["Mimaropa"],
        "isl_grp": "Luzon",
        "alt_names": [],
        "marker-color": "#259346",
        "marker-size": "medium",
        "marker-symbol": "mountain"
      }
    },
    {
      "type": "Feature",
      "geometry": { "type": "Point", "coordinates": [119.542987, 11.041109] },
      "properties": {
        "name": "Silanga Peak",
        "elev": 458,
        "prom": 440,
        "coord": "11°2′28″N 119°32′35″E",
        "prov": ["Palawan"],
        "region": ["Mimaropa"],
        "isl_grp": "Luzon",
        "alt_names": [],
        "marker-color": "#259346",
        "marker-size": "small",
        "marker-symbol": "mountain"
      }
    },
    {
      "type": "Feature",
      "geometry": { "type": "Point", "coordinates": [119.277769, 10.987007] },
      "properties": {
        "name": "South Tuluran Peak",
        "elev": 395,
        "prom": 395,
        "coord": "10°59′13″N 119°16′40″E",
        "prov": ["Palawan"],
        "region": ["Mimaropa"],
        "isl_grp": "Luzon",
        "alt_names": [],
        "marker-color": "#259346",
        "marker-size": "small",
        "marker-symbol": "mountain"
      }
    },
    {
      "type": "Feature",
      "geometry": { "type": "Point", "coordinates": [119.032743, 10.199994] },
      "properties": {
        "name": "Stripe Peak",
        "elev": 1475,
        "prom": 384,
        "coord": "10°11′60″N 119°1′58″E",
        "prov": ["Palawan"],
        "region": ["Mimaropa"],
        "isl_grp": "Luzon",
        "alt_names": [],
        "marker-color": "#259346",
        "marker-size": "medium",
        "marker-symbol": "mountain"
      }
    },
    {
      "type": "Feature",
      "geometry": { "type": "Point", "coordinates": [119.51355, 10.37825] },
      "properties": {
        "name": "Taradungan Mountain",
        "elev": 545,
        "prom": 450,
        "coord": "10°22′42″N 119°30′49″E",
        "prov": ["Palawan"],
        "region": ["Mimaropa"],
        "isl_grp": "Luzon",
        "alt_names": [],
        "marker-color": "#259346",
        "marker-size": "medium",
        "marker-symbol": "mountain"
      }
    },
    {
      "type": "Feature",
      "geometry": { "type": "Point", "coordinates": [118.3, 9.366667] },
      "properties": {
        "name": "The Teeth",
        "elev": 1204,
        "prom": 460,
        "coord": "9°22′0″N 118°17′60″E",
        "prov": ["Palawan"],
        "region": ["Mimaropa"],
        "isl_grp": "Luzon",
        "alt_names": [],
        "marker-color": "#259346",
        "marker-size": "medium",
        "marker-symbol": "mountain"
      }
    },
    {
      "type": "Feature",
      "geometry": { "type": "Point", "coordinates": [118.603347, 9.792172] },
      "properties": {
        "name": "Thumb Peak",
        "elev": 1269,
        "prom": 1021,
        "coord": "9°47′32″N 118°36′12″E",
        "prov": ["Palawan"],
        "region": ["Mimaropa"],
        "isl_grp": "Luzon",
        "alt_names": [],
        "marker-color": "#259346",
        "marker-size": "medium",
        "marker-symbol": "mountain"
      }
    },
    {
      "type": "Feature",
      "geometry": { "type": "Point", "coordinates": [117.055327, 7.878056] },
      "properties": {
        "name": "Transept Hill",
        "elev": 429,
        "prom": 355,
        "coord": "7°52′41″N 117°3′19″E",
        "prov": ["Palawan"],
        "region": ["Mimaropa"],
        "isl_grp": "Luzon",
        "alt_names": [],
        "marker-color": "#259346",
        "marker-size": "small",
        "marker-symbol": "mountain"
      }
    }
  ]
}
